{
  "type": "FeatureCollection",
  "features": [
    {
      "type": "Feature",
      "properties": {
        "station_id": "11059",
        "name": "Prunişor Hm."
      },
      "geometry": {
        "type": "Point",
        "coordinates": [
          22.922368,
          44.606259
        ]
      }
    },
    {
      "type": "Feature",
      "properties": {
        "station_id": "57118",
        "name": "Şeica Mică h."
      },
      "geometry": {
        "type": "Point",
        "coordinates": [
          24.169385,
          46.108973
        ]
      }
    },
    {
      "type": "Feature",
      "properties": {
        "station_id": "43686",
        "name": "Vişeu Bistra h."
      },
      "geometry": {
        "type": "Point",
        "coordinates": [
          24.191886,
          47.864195
        ]
      }
    },
    {
      "type": "Feature",
      "properties": {
        "station_id": "81133",
        "name": "Neptun hc."
      },
      "geometry": {
        "type": "Point",
        "coordinates": [
          28.604829,
          43.886026
        ]
      }
    },
    {
      "type": "Feature",
      "properties": {
        "station_id": "60476",
        "name": "Dragalina h."
      },
      "geometry": {
        "type": "Point",
        "coordinates": [
          27.59986,
          46.16139
        ]
      }
    },
    {
      "type": "Feature",
      "properties": {
        "station_id": "71695",
        "name": "Malu h."
      },
      "geometry": {
        "type": "Point",
        "coordinates": [
          26.824974,
          44.653807
        ]
      }
    },
    {
      "type": "Feature",
      "properties": {
        "station_id": "51001",
        "name": "Bucuresti Basarab"
      },
      "geometry": {
        "type": "Point",
        "coordinates": [
          26.06839,
          44.450084
        ]
      }
    },
    {
      "type": "Feature",
      "properties": {
        "station_id": "82060",
        "name": "Căldăraru h."
      },
      "geometry": {
        "type": "Point",
        "coordinates": [
          26.277687,
          44.406062
        ]
      }
    },
    {
      "type": "Feature",
      "properties": {
        "station_id": "21078",
        "name": "Balomiru de Câmp h."
      },
      "geometry": {
        "type": "Point",
        "coordinates": [
          23.367395,
          45.93366
        ]
      }
    },
    {
      "type": "Feature",
      "properties": {
        "station_id": "60684",
        "name": "Bălteni Hm."
      },
      "geometry": {
        "type": "Point",
        "coordinates": [
          27.642684,
          46.690674
        ]
      }
    },
    {
      "type": "Feature",
      "properties": {
        "station_id": "25191",
        "name": "Aliuş hcv."
      },
      "geometry": {
        "type": "Point",
        "coordinates": [
          21.499511,
          46.041406
        ]
      }
    },
    {
      "type": "Feature",
      "properties": {
        "station_id": "80440",
        "name": "Bărăganu Hm."
      },
      "geometry": {
        "type": "Point",
        "coordinates": [
          27.697846,
          44.420579
        ]
      }
    },
    {
      "type": "Feature",
      "properties": {
        "station_id": "32376",
        "name": "Stâna de Vale h."
      },
      "geometry": {
        "type": "Point",
        "coordinates": [
          22.648376,
          46.928087
        ]
      }
    },
    {
      "type": "Feature",
      "properties": {
        "station_id": "20244",
        "name": "Beclean pe Olt h."
      },
      "geometry": {
        "type": "Point",
        "coordinates": [
          24.923661,
          45.835802
        ]
      }
    },
    {
      "type": "Feature",
      "properties": {
        "station_id": "21092",
        "name": "Şibot"
      },
      "geometry": {
        "type": "Point",
        "coordinates": [
          23.331364,
          45.929521
        ]
      }
    },
    {
      "type": "Feature",
      "properties": {
        "station_id": "21652",
        "name": "Nadăş h."
      },
      "geometry": {
        "type": "Point",
        "coordinates": [
          21.930823,
          46.102635
        ]
      }
    },
    {
      "type": "Feature",
      "properties": {
        "station_id": "11384",
        "name": "Domaşnea Cornea Hm."
      },
      "geometry": {
        "type": "Point",
        "coordinates": [
          22.308452,
          45.059982
        ]
      }
    },
    {
      "type": "Feature",
      "properties": {
        "station_id": "13291",
        "name": "Moţăieni h."
      },
      "geometry": {
        "type": "Point",
        "coordinates": [
          25.423457,
          45.092204
        ]
      }
    },
    {
      "type": "Feature",
      "properties": {
        "station_id": "50017",
        "name": "Ploieşti Sud"
      },
      "geometry": {
        "type": "Point",
        "coordinates": [
          26.026162,
          44.924841
        ]
      }
    },
    {
      "type": "Feature",
      "properties": {
        "station_id": "10653",
        "name": "Ţărţăl h."
      },
      "geometry": {
        "type": "Point",
        "coordinates": [
          24.092361,
          44.179236
        ]
      }
    },
    {
      "type": "Feature",
      "properties": {
        "station_id": "41287",
        "name": "Gilgau h"
      },
      "geometry": {
        "type": "Point",
        "coordinates": [
          23.668871,
          47.268281
        ]
      }
    },
    {
      "type": "Feature",
      "properties": {
        "station_id": "10536",
        "name": "Drăgăneşti Olt"
      },
      "geometry": {
        "type": "Point",
        "coordinates": [
          24.544698,
          44.154629
        ]
      }
    },
    {
      "type": "Feature",
      "properties": {
        "station_id": "23428",
        "name": "Târgu Jiu"
      },
      "geometry": {
        "type": "Point",
        "coordinates": [
          23.280928,
          45.031861
        ]
      }
    },
    {
      "type": "Feature",
      "properties": {
        "station_id": "54635",
        "name": "Câmpulung Est Hm."
      },
      "geometry": {
        "type": "Point",
        "coordinates": [
          25.596903,
          47.517482
        ]
      }
    },
    {
      "type": "Feature",
      "properties": {
        "station_id": "80737",
        "name": "Castelu h."
      },
      "geometry": {
        "type": "Point",
        "coordinates": [
          28.335672,
          44.251495
        ]
      }
    },
    {
      "type": "Feature",
      "properties": {
        "station_id": "20658",
        "name": "Sibiu"
      },
      "geometry": {
        "type": "Point",
        "coordinates": [
          24.162294,
          45.799765
        ]
      }
    },
    {
      "type": "Feature",
      "properties": {
        "station_id": "21121",
        "name": "Aurel Vlaicu"
      },
      "geometry": {
        "type": "Point",
        "coordinates": [
          23.271034,
          45.899058
        ]
      }
    },
    {
      "type": "Feature",
      "properties": {
        "station_id": "11774",
        "name": "Topolovăţ"
      },
      "geometry": {
        "type": "Point",
        "coordinates": [
          21.629222,
          45.768445
        ]
      }
    },
    {
      "type": "Feature",
      "properties": {
        "station_id": "10615",
        "name": "Grozăveşti Hm."
      },
      "geometry": {
        "type": "Point",
        "coordinates": [
          24.235713,
          44.147976
        ]
      }
    },
    {
      "type": "Feature",
      "properties": {
        "station_id": "50770",
        "name": "Domneşti Târg h."
      },
      "geometry": {
        "type": "Point",
        "coordinates": [
          27.191666,
          46.027879
        ]
      }
    },
    {
      "type": "Feature",
      "properties": {
        "station_id": "13435",
        "name": "Rădeşti h."
      },
      "geometry": {
        "type": "Point",
        "coordinates": [
          24.999956,
          45.071656
        ]
      }
    },
    {
      "type": "Feature",
      "properties": {
        "station_id": "22400",
        "name": "Râureni"
      },
      "geometry": {
        "type": "Point",
        "coordinates": [
          24.330318,
          45.061136
        ]
      }
    },
    {
      "type": "Feature",
      "properties": {
        "station_id": "60799",
        "name": "Grajduri"
      },
      "geometry": {
        "type": "Point",
        "coordinates": [
          27.550903,
          46.979306
        ]
      }
    },
    {
      "type": "Feature",
      "properties": {
        "station_id": "11126",
        "name": "Drobeta Tr.Sev Est Hm."
      },
      "geometry": {
        "type": "Point",
        "coordinates": [
          22.679105,
          44.622787
        ]
      }
    },
    {
      "type": "Feature",
      "properties": {
        "station_id": "20880",
        "name": "Apoldu de Jos h."
      },
      "geometry": {
        "type": "Point",
        "coordinates": [
          23.833128,
          45.878
        ]
      }
    },
    {
      "type": "Feature",
      "properties": {
        "station_id": "72314",
        "name": "Spicu"
      },
      "geometry": {
        "type": "Point",
        "coordinates": [
          27.51205,
          44.815008
        ]
      }
    },
    {
      "type": "Feature",
      "properties": {
        "station_id": "60206",
        "name": "Botirlau hc"
      },
      "geometry": {
        "type": "Point",
        "coordinates": [
          27.350429,
          45.618497
        ]
      }
    },
    {
      "type": "Feature",
      "properties": {
        "station_id": "51724",
        "name": "Ţibeni h."
      },
      "geometry": {
        "type": "Point",
        "coordinates": [
          26.02589,
          47.82145
        ]
      }
    },
    {
      "type": "Feature",
      "properties": {
        "station_id": "45232",
        "name": "Curtuiuşeni h."
      },
      "geometry": {
        "type": "Point",
        "coordinates": [
          22.201103,
          47.558398
        ]
      }
    },
    {
      "type": "Feature",
      "properties": {
        "station_id": "10938",
        "name": "Turceni"
      },
      "geometry": {
        "type": "Point",
        "coordinates": [
          23.388067,
          44.677366
        ]
      }
    },
    {
      "type": "Feature",
      "properties": {
        "station_id": "22292",
        "name": "Orleşti hc."
      },
      "geometry": {
        "type": "Point",
        "coordinates": [
          24.246591,
          44.79834
        ]
      }
    },
    {
      "type": "Feature",
      "properties": {
        "station_id": "54726",
        "name": "Valea Putnei P.M."
      },
      "geometry": {
        "type": "Point",
        "coordinates": [
          25.384956,
          47.489387
        ]
      }
    },
    {
      "type": "Feature",
      "properties": {
        "station_id": "13277",
        "name": "Trainica h."
      },
      "geometry": {
        "type": "Point",
        "coordinates": [
          25.437258,
          45.04789
        ]
      }
    },
    {
      "type": "Feature",
      "properties": {
        "station_id": "40957",
        "name": "Domneşti pe Şieu h."
      },
      "geometry": {
        "type": "Point",
        "coordinates": [
          24.480282,
          47.037426
        ]
      }
    },
    {
      "type": "Feature",
      "properties": {
        "station_id": "62230",
        "name": "Falciu Nord Hm"
      },
      "geometry": {
        "type": "Point",
        "coordinates": [
          28.128051,
          46.260462
        ]
      }
    },
    {
      "type": "Feature",
      "properties": {
        "station_id": "25361",
        "name": "Vinga Hm."
      },
      "geometry": {
        "type": "Point",
        "coordinates": [
          21.199387,
          46.016625
        ]
      }
    },
    {
      "type": "Feature",
      "properties": {
        "station_id": "41377",
        "name": "Letca Hm."
      },
      "geometry": {
        "type": "Point",
        "coordinates": [
          23.465509,
          47.338043
        ]
      }
    },
    {
      "type": "Feature",
      "properties": {
        "station_id": "42735",
        "name": "Cipău h."
      },
      "geometry": {
        "type": "Point",
        "coordinates": [
          24.272944,
          46.434431
        ]
      }
    },
    {
      "type": "Feature",
      "properties": {
        "station_id": "10873",
        "name": "Răcari Hm."
      },
      "geometry": {
        "type": "Point",
        "coordinates": [
          23.573863,
          44.515382
        ]
      }
    },
    {
      "type": "Feature",
      "properties": {
        "station_id": "43521",
        "name": "Romuli h."
      },
      "geometry": {
        "type": "Point",
        "coordinates": [
          24.435388,
          47.540149
        ]
      }
    },
    {
      "type": "Feature",
      "properties": {
        "station_id": "41808",
        "name": "Săbişa h."
      },
      "geometry": {
        "type": "Point",
        "coordinates": [
          23.325284,
          47.726215
        ]
      }
    },
    {
      "type": "Feature",
      "properties": {
        "station_id": "14427",
        "name": "Turnu Măgurele"
      },
      "geometry": {
        "type": "Point",
        "coordinates": [
          24.877036,
          43.753898
        ]
      }
    },
    {
      "type": "Feature",
      "properties": {
        "station_id": "57132",
        "name": "Saschiz h."
      },
      "geometry": {
        "type": "Point",
        "coordinates": [
          24.961905,
          46.23979
        ]
      }
    },
    {
      "type": "Feature",
      "properties": {
        "station_id": "10017",
        "name": "Bucureşti Nord Gr.A"
      },
      "geometry": {
        "type": "Point",
        "coordinates": [
          26.073465,
          44.446652
        ]
      }
    },
    {
      "type": "Feature",
      "properties": {
        "station_id": "32341",
        "name": "Km. 74 + 600 hc"
      },
      "geometry": {
        "type": "Point",
        "coordinates": [
          26.866573,
          44.649094
        ]
      }
    },
    {
      "type": "Feature",
      "properties": {
        "station_id": "12405",
        "name": "Conţeşti h."
      },
      "geometry": {
        "type": "Point",
        "coordinates": [
          25.652862,
          44.656918
        ]
      }
    },
    {
      "type": "Feature",
      "properties": {
        "station_id": "54881",
        "name": "Floreni"
      },
      "geometry": {
        "type": "Point",
        "coordinates": [
          25.222668,
          47.359307
        ]
      }
    },
    {
      "type": "Feature",
      "properties": {
        "station_id": "61444",
        "name": "Piscu h."
      },
      "geometry": {
        "type": "Point",
        "coordinates": [
          27.719952,
          45.506948
        ]
      }
    },
    {
      "type": "Feature",
      "properties": {
        "station_id": "12364",
        "name": "Bâldana h."
      },
      "geometry": {
        "type": "Point",
        "coordinates": [
          25.782701,
          44.620758
        ]
      }
    },
    {
      "type": "Feature",
      "properties": {
        "station_id": "20036",
        "name": "Ghimbav Hm."
      },
      "geometry": {
        "type": "Point",
        "coordinates": [
          25.509823,
          45.669532
        ]
      }
    },
    {
      "type": "Feature",
      "properties": {
        "station_id": "48014",
        "name": "Bistriţa Fabrici h."
      },
      "geometry": {
        "type": "Point",
        "coordinates": [
          24.476623,
          47.127078
        ]
      }
    },
    {
      "type": "Feature",
      "properties": {
        "station_id": "23167",
        "name": "Ţânţăreni Hm."
      },
      "geometry": {
        "type": "Point",
        "coordinates": [
          23.504881,
          44.597763
        ]
      }
    },
    {
      "type": "Feature",
      "properties": {
        "station_id": "21559",
        "name": "Săvârşin"
      },
      "geometry": {
        "type": "Point",
        "coordinates": [
          22.232215,
          46.008013
        ]
      }
    },
    {
      "type": "Feature",
      "properties": {
        "station_id": "13265",
        "name": "Scârlenţa h."
      },
      "geometry": {
        "type": "Point",
        "coordinates": [
          25.42653,
          45.034395
        ]
      }
    },
    {
      "type": "Feature",
      "properties": {
        "station_id": "70213",
        "name": "Bărbuleşti h."
      },
      "geometry": {
        "type": "Point",
        "coordinates": [
          26.601959,
          44.72226
        ]
      }
    },
    {
      "type": "Feature",
      "properties": {
        "station_id": "14049",
        "name": "Giurgiu"
      },
      "geometry": {
        "type": "Point",
        "coordinates": [
          25.960798,
          43.89533
        ]
      }
    },
    {
      "type": "Feature",
      "properties": {
        "station_id": "30158",
        "name": "Dârza h."
      },
      "geometry": {
        "type": "Point",
        "coordinates": [
          25.957138,
          44.599892
        ]
      }
    },
    {
      "type": "Feature",
      "properties": {
        "station_id": "50342",
        "name": "Buzău"
      },
      "geometry": {
        "type": "Point",
        "coordinates": [
          26.821584,
          45.141997
        ]
      }
    },
    {
      "type": "Feature",
      "properties": {
        "station_id": "20359",
        "name": "Arpaş Hm."
      },
      "geometry": {
        "type": "Point",
        "coordinates": [
          24.612145,
          45.784827
        ]
      }
    },
    {
      "type": "Feature",
      "properties": {
        "station_id": "40579",
        "name": "Gheorgheni"
      },
      "geometry": {
        "type": "Point",
        "coordinates": [
          25.573648,
          46.718807
        ]
      }
    },
    {
      "type": "Feature",
      "properties": {
        "station_id": "32235",
        "name": "Jebuc h."
      },
      "geometry": {
        "type": "Point",
        "coordinates": [
          23.093809,
          46.864493
        ]
      }
    },
    {
      "type": "Feature",
      "properties": {
        "station_id": "52120",
        "name": "Homorâciu P.M."
      },
      "geometry": {
        "type": "Point",
        "coordinates": [
          26.016252,
          45.267982
        ]
      }
    },
    {
      "type": "Feature",
      "properties": {
        "station_id": "60086",
        "name": "Ghergheasa Hm"
      },
      "geometry": {
        "type": "Point",
        "coordinates": [
          27.261106,
          45.267376
        ]
      }
    },
    {
      "type": "Feature",
      "properties": {
        "station_id": "11877",
        "name": "Timişoara Est"
      },
      "geometry": {
        "type": "Point",
        "coordinates": [
          21.249965,
          45.769244
        ]
      }
    },
    {
      "type": "Feature",
      "properties": {
        "station_id": "15720",
        "name": "Sinia Hm."
      },
      "geometry": {
        "type": "Point",
        "coordinates": [
          21.717245,
          45.684835
        ]
      }
    },
    {
      "type": "Feature",
      "properties": {
        "station_id": "11956",
        "name": "Săcălaz Hm."
      },
      "geometry": {
        "type": "Point",
        "coordinates": [
          21.105164,
          45.767727
        ]
      }
    },
    {
      "type": "Feature",
      "properties": {
        "station_id": "31279",
        "name": "Dumbrăveni"
      },
      "geometry": {
        "type": "Point",
        "coordinates": [
          24.561404,
          46.21592
        ]
      }
    },
    {
      "type": "Feature",
      "properties": {
        "station_id": "21597",
        "name": "Vărădia Hm."
      },
      "geometry": {
        "type": "Point",
        "coordinates": [
          22.133334,
          46.016539
        ]
      }
    },
    {
      "type": "Feature",
      "properties": {
        "station_id": "52170",
        "name": "Măgurele Nord h."
      },
      "geometry": {
        "type": "Point",
        "coordinates": [
          26.035356,
          45.125578
        ]
      }
    },
    {
      "type": "Feature",
      "properties": {
        "station_id": "53734",
        "name": "Zăneşti Neamţ h."
      },
      "geometry": {
        "type": "Point",
        "coordinates": [
          26.548627,
          46.822216
        ]
      }
    },
    {
      "type": "Feature",
      "properties": {
        "station_id": "11580",
        "name": "Tibiscu h."
      },
      "geometry": {
        "type": "Point",
        "coordinates": [
          22.183682,
          45.456312
        ]
      }
    },
    {
      "type": "Feature",
      "properties": {
        "station_id": "82125",
        "name": "Brâncoveni h."
      },
      "geometry": {
        "type": "Point",
        "coordinates": [
          27.368486,
          44.480244
        ]
      }
    },
    {
      "type": "Feature",
      "properties": {
        "station_id": "13239",
        "name": "Doiceşti"
      },
      "geometry": {
        "type": "Point",
        "coordinates": [
          25.411314,
          44.987265
        ]
      }
    },
    {
      "type": "Feature",
      "properties": {
        "station_id": "60452",
        "name": "Tutova"
      },
      "geometry": {
        "type": "Point",
        "coordinates": [
          27.554345,
          46.110208
        ]
      }
    },
    {
      "type": "Feature",
      "properties": {
        "station_id": "11176",
        "name": "Gura Văii Hm."
      },
      "geometry": {
        "type": "Point",
        "coordinates": [
          22.560349,
          44.659871
        ]
      }
    },
    {
      "type": "Feature",
      "properties": {
        "station_id": "10677",
        "name": "Leu Hm."
      },
      "geometry": {
        "type": "Point",
        "coordinates": [
          24.037348,
          44.200405
        ]
      }
    },
    {
      "type": "Feature",
      "properties": {
        "station_id": "51671",
        "name": "Dărmăneşti"
      },
      "geometry": {
        "type": "Point",
        "coordinates": [
          26.14246,
          47.71189
        ]
      }
    },
    {
      "type": "Feature",
      "properties": {
        "station_id": "80397",
        "name": "Ogoarele h."
      },
      "geometry": {
        "type": "Point",
        "coordinates": [
          27.464488,
          44.425514
        ]
      }
    },
    {
      "type": "Feature",
      "properties": {
        "station_id": "32156",
        "name": "Macău h."
      },
      "geometry": {
        "type": "Point",
        "coordinates": [
          23.314371,
          46.847215
        ]
      }
    },
    {
      "type": "Feature",
      "properties": {
        "station_id": "47319",
        "name": "Botiz Hm."
      },
      "geometry": {
        "type": "Point",
        "coordinates": [
          22.94554,
          47.825863
        ]
      }
    },
    {
      "type": "Feature",
      "properties": {
        "station_id": "21664",
        "name": "Conop Hm."
      },
      "geometry": {
        "type": "Point",
        "coordinates": [
          21.875808,
          46.101028
        ]
      }
    },
    {
      "type": "Feature",
      "properties": {
        "station_id": "50744",
        "name": "Călimăneşti Vrancea h."
      },
      "geometry": {
        "type": "Point",
        "coordinates": [
          27.210562,
          45.96054
        ]
      }
    },
    {
      "type": "Feature",
      "properties": {
        "station_id": "51516",
        "name": "Băneşti Suceava hc."
      },
      "geometry": {
        "type": "Point",
        "coordinates": [
          26.503595,
          47.568443
        ]
      }
    },
    {
      "type": "Feature",
      "properties": {
        "station_id": "32352",
        "name": "Piatra Craiului Hm."
      },
      "geometry": {
        "type": "Point",
        "coordinates": [
          22.702509,
          46.946672
        ]
      }
    },
    {
      "type": "Feature",
      "properties": {
        "station_id": "53033",
        "name": "Trotuş h."
      },
      "geometry": {
        "type": "Point",
        "coordinates": [
          26.706091,
          46.26991
        ]
      }
    },
    {
      "type": "Feature",
      "properties": {
        "station_id": "13174",
        "name": "Văcăreşti h."
      },
      "geometry": {
        "type": "Point",
        "coordinates": [
          25.500081,
          44.856066
        ]
      }
    },
    {
      "type": "Feature",
      "properties": {
        "station_id": "20490",
        "name": "Podu Olt"
      },
      "geometry": {
        "type": "Point",
        "coordinates": [
          24.298634,
          45.662241
        ]
      }
    },
    {
      "type": "Feature",
      "properties": {
        "station_id": "40696",
        "name": "Ciobotani h."
      },
      "geometry": {
        "type": "Point",
        "coordinates": [
          25.266204,
          46.950535
        ]
      }
    },
    {
      "type": "Feature",
      "properties": {
        "station_id": "22967",
        "name": "Sântimbru h."
      },
      "geometry": {
        "type": "Point",
        "coordinates": [
          23.652072,
          46.13623
        ]
      }
    },
    {
      "type": "Feature",
      "properties": {
        "station_id": "60696",
        "name": "Brăhăşoaia h."
      },
      "geometry": {
        "type": "Point",
        "coordinates": [
          27.607503,
          46.719423
        ]
      }
    },
    {
      "type": "Feature",
      "properties": {
        "station_id": "10988",
        "name": "Strehaia hc."
      },
      "geometry": {
        "type": "Point",
        "coordinates": [
          23.193807,
          44.615937
        ]
      }
    },
    {
      "type": "Feature",
      "properties": {
        "station_id": "32948",
        "name": "I.L.Caragiale"
      },
      "geometry": {
        "type": "Point",
        "coordinates": [
          25.723473,
          44.908048
        ]
      }
    },
    {
      "type": "Feature",
      "properties": {
        "station_id": "41511",
        "name": "Ţicău h."
      },
      "geometry": {
        "type": "Point",
        "coordinates": [
          23.303303,
          47.444433
        ]
      }
    },
    {
      "type": "Feature",
      "properties": {
        "station_id": "40555",
        "name": "Valea Strâmbă h."
      },
      "geometry": {
        "type": "Point",
        "coordinates": [
          25.586125,
          46.689277
        ]
      }
    },
    {
      "type": "Feature",
      "properties": {
        "station_id": "21365",
        "name": "Brănişca Hm."
      },
      "geometry": {
        "type": "Point",
        "coordinates": [
          22.773368,
          45.919409
        ]
      }
    },
    {
      "type": "Feature",
      "properties": {
        "station_id": "81779",
        "name": "Gălbinaşi hc."
      },
      "geometry": {
        "type": "Point",
        "coordinates": [
          26.413943,
          44.312233
        ]
      }
    },
    {
      "type": "Feature",
      "properties": {
        "station_id": "54233",
        "name": "Botoşani"
      },
      "geometry": {
        "type": "Point",
        "coordinates": [
          26.644306,
          47.753653
        ]
      }
    },
    {
      "type": "Feature",
      "properties": {
        "station_id": "13980",
        "name": "Taban hc"
      },
      "geometry": {
        "type": "Point",
        "coordinates": [
          26.015397,
          44.026838
        ]
      }
    },
    {
      "type": "Feature",
      "properties": {
        "station_id": "50158",
        "name": "Muru hc."
      },
      "geometry": {
        "type": "Point",
        "coordinates": [
          26.206965,
          44.94725
        ]
      }
    },
    {
      "type": "Feature",
      "properties": {
        "station_id": "42711",
        "name": "Sânpaul Hm."
      },
      "geometry": {
        "type": "Point",
        "coordinates": [
          24.34007,
          46.447767
        ]
      }
    },
    {
      "type": "Feature",
      "properties": {
        "station_id": "53239",
        "name": "Goioasa Hm."
      },
      "geometry": {
        "type": "Point",
        "coordinates": [
          26.290441,
          46.450986
        ]
      }
    },
    {
      "type": "Feature",
      "properties": {
        "station_id": "60610",
        "name": "Bulboaca h."
      },
      "geometry": {
        "type": "Point",
        "coordinates": [
          27.783067,
          46.559481
        ]
      }
    },
    {
      "type": "Feature",
      "properties": {
        "station_id": "44240",
        "name": "Zalău Nord"
      },
      "geometry": {
        "type": "Point",
        "coordinates": [
          23.040904,
          47.221036
        ]
      }
    },
    {
      "type": "Feature",
      "properties": {
        "station_id": "42761",
        "name": "Cuci h."
      },
      "geometry": {
        "type": "Point",
        "coordinates": [
          24.163352,
          46.460455
        ]
      }
    },
    {
      "type": "Feature",
      "properties": {
        "station_id": "11619",
        "name": "Căvăran"
      },
      "geometry": {
        "type": "Point",
        "coordinates": [
          22.139136,
          45.548241
        ]
      }
    },
    {
      "type": "Feature",
      "properties": {
        "station_id": "62137",
        "name": "Suletea hc"
      },
      "geometry": {
        "type": "Point",
        "coordinates": [
          27.899954,
          46.269328
        ]
      }
    },
    {
      "type": "Feature",
      "properties": {
        "station_id": "13485",
        "name": "Schitu Goleşti"
      },
      "geometry": {
        "type": "Point",
        "coordinates": [
          25.002922,
          45.204493
        ]
      }
    },
    {
      "type": "Feature",
      "properties": {
        "station_id": "51308",
        "name": "Stolniceni h."
      },
      "geometry": {
        "type": "Point",
        "coordinates": [
          26.749924,
          47.200528
        ]
      }
    },
    {
      "type": "Feature",
      "properties": {
        "station_id": "12998",
        "name": "Balş"
      },
      "geometry": {
        "type": "Point",
        "coordinates": [
          24.116054,
          44.3401
        ]
      }
    },
    {
      "type": "Feature",
      "properties": {
        "station_id": "33801",
        "name": "Şeica Mare"
      },
      "geometry": {
        "type": "Point",
        "coordinates": [
          24.163027,
          46.034037
        ]
      }
    },
    {
      "type": "Feature",
      "properties": {
        "station_id": "13136",
        "name": "Movila Dâmboviţa h."
      },
      "geometry": {
        "type": "Point",
        "coordinates": [
          25.56116,
          44.768525
        ]
      }
    },
    {
      "type": "Feature",
      "properties": {
        "station_id": "16281",
        "name": "Reşiţa Sud Hm."
      },
      "geometry": {
        "type": "Point",
        "coordinates": [
          21.888527,
          45.29148
        ]
      }
    },
    {
      "type": "Feature",
      "properties": {
        "station_id": "53667",
        "name": "Racova h."
      },
      "geometry": {
        "type": "Point",
        "coordinates": [
          26.722269,
          46.70197
        ]
      }
    },
    {
      "type": "Feature",
      "properties": {
        "station_id": "42943",
        "name": "Viişoara h."
      },
      "geometry": {
        "type": "Point",
        "coordinates": [
          24.452679,
          47.101732
        ]
      }
    },
    {
      "type": "Feature",
      "properties": {
        "station_id": "23363",
        "name": "Copăcioasa Hm."
      },
      "geometry": {
        "type": "Point",
        "coordinates": [
          23.431757,
          45.024285
        ]
      }
    },
    {
      "type": "Feature",
      "properties": {
        "station_id": "41298",
        "name": "Glodu Someşului h."
      },
      "geometry": {
        "type": "Point",
        "coordinates": [
          23.645939,
          47.280862
        ]
      }
    },
    {
      "type": "Feature",
      "properties": {
        "station_id": "51700",
        "name": "Milişăuţi Hm."
      },
      "geometry": {
        "type": "Point",
        "coordinates": [
          26.052885,
          47.772127
        ]
      }
    },
    {
      "type": "Feature",
      "properties": {
        "station_id": "21157",
        "name": "Orăştie"
      },
      "geometry": {
        "type": "Point",
        "coordinates": [
          23.210474,
          45.861764
        ]
      }
    },
    {
      "type": "Feature",
      "properties": {
        "station_id": "30457",
        "name": "Breaza hc."
      },
      "geometry": {
        "type": "Point",
        "coordinates": [
          25.68554,
          45.173523
        ]
      }
    },
    {
      "type": "Feature",
      "properties": {
        "station_id": "24484",
        "name": "Coroieşti h."
      },
      "geometry": {
        "type": "Point",
        "coordinates": [
          23.298623,
          45.380055
        ]
      }
    },
    {
      "type": "Feature",
      "properties": {
        "station_id": "53849",
        "name": "Bistriţa Neamţ hcv."
      },
      "geometry": {
        "type": "Point",
        "coordinates": [
          26.281309,
          46.940623
        ]
      }
    },
    {
      "type": "Feature",
      "properties": {
        "station_id": "11308",
        "name": "Băile Herculane"
      },
      "geometry": {
        "type": "Point",
        "coordinates": [
          22.3878,
          44.862628
        ]
      }
    },
    {
      "type": "Feature",
      "properties": {
        "station_id": "80555",
        "name": "Ovidiu"
      },
      "geometry": {
        "type": "Point",
        "coordinates": [
          27.879194,
          44.37463
        ]
      }
    },
    {
      "type": "Feature",
      "properties": {
        "station_id": "22656",
        "name": "Râu Vadului h."
      },
      "geometry": {
        "type": "Point",
        "coordinates": [
          24.272572,
          45.525409
        ]
      }
    },
    {
      "type": "Feature",
      "properties": {
        "station_id": "53916",
        "name": "Bicaz"
      },
      "geometry": {
        "type": "Point",
        "coordinates": [
          26.09894,
          46.908072
        ]
      }
    },
    {
      "type": "Feature",
      "properties": {
        "station_id": "61456",
        "name": "Vameş h."
      },
      "geometry": {
        "type": "Point",
        "coordinates": [
          27.701573,
          45.534239
        ]
      }
    },
    {
      "type": "Feature",
      "properties": {
        "station_id": "61327",
        "name": "Barboşi Triaj h."
      },
      "geometry": {
        "type": "Point",
        "coordinates": [
          27.964221,
          45.402404
        ]
      }
    },
    {
      "type": "Feature",
      "properties": {
        "station_id": "70342",
        "name": "Gârbovi Hm."
      },
      "geometry": {
        "type": "Point",
        "coordinates": [
          26.785341,
          44.77356
        ]
      }
    },
    {
      "type": "Feature",
      "properties": {
        "station_id": "57144",
        "name": "Km. 374+700 h."
      },
      "geometry": {
        "type": "Point",
        "coordinates": [
          23.948052,
          46.164612
        ]
      }
    },
    {
      "type": "Feature",
      "properties": {
        "station_id": "53332",
        "name": "Lunca de Mijloc Hm."
      },
      "geometry": {
        "type": "Point",
        "coordinates": [
          25.995279,
          46.579119
        ]
      }
    },
    {
      "type": "Feature",
      "properties": {
        "station_id": "53265",
        "name": "Palanca Hm."
      },
      "geometry": {
        "type": "Point",
        "coordinates": [
          26.128404,
          46.534517
        ]
      }
    },
    {
      "type": "Feature",
      "properties": {
        "station_id": "11188",
        "name": "Jidoştiţa h."
      },
      "geometry": {
        "type": "Point",
        "coordinates": [
          22.531663,
          44.676999
        ]
      }
    },
    {
      "type": "Feature",
      "properties": {
        "station_id": "71621",
        "name": "Fulga hc."
      },
      "geometry": {
        "type": "Point",
        "coordinates": [
          26.432373,
          44.773897
        ]
      }
    },
    {
      "type": "Feature",
      "properties": {
        "station_id": "24513",
        "name": "Lupeni hc."
      },
      "geometry": {
        "type": "Point",
        "coordinates": [
          23.216958,
          45.358299
        ]
      }
    },
    {
      "type": "Feature",
      "properties": {
        "station_id": "25050",
        "name": "Nevrincea h."
      },
      "geometry": {
        "type": "Point",
        "coordinates": [
          21.90278,
          45.804018
        ]
      }
    },
    {
      "type": "Feature",
      "properties": {
        "station_id": "32637",
        "name": "Oradea Est"
      },
      "geometry": {
        "type": "Point",
        "coordinates": [
          21.963065,
          47.043631
        ]
      }
    },
    {
      "type": "Feature",
      "properties": {
        "station_id": "42412",
        "name": "Aluniş Mureş Hm."
      },
      "geometry": {
        "type": "Point",
        "coordinates": [
          24.824548,
          46.900371
        ]
      }
    },
    {
      "type": "Feature",
      "properties": {
        "station_id": "71578",
        "name": "Cornurile h."
      },
      "geometry": {
        "type": "Point",
        "coordinates": [
          26.237211,
          44.850457
        ]
      }
    },
    {
      "type": "Feature",
      "properties": {
        "station_id": "41793",
        "name": "Ilba h."
      },
      "geometry": {
        "type": "Point",
        "coordinates": [
          23.346813,
          47.714721
        ]
      }
    },
    {
      "type": "Feature",
      "properties": {
        "station_id": "23557",
        "name": "Pietrele Albe Hm."
      },
      "geometry": {
        "type": "Point",
        "coordinates": [
          23.384393,
          45.306602
        ]
      }
    },
    {
      "type": "Feature",
      "properties": {
        "station_id": "40024",
        "name": "Hărman"
      },
      "geometry": {
        "type": "Point",
        "coordinates": [
          25.686208,
          45.69781
        ]
      }
    },
    {
      "type": "Feature",
      "properties": {
        "station_id": "22345",
        "name": "Slăviteşti hc."
      },
      "geometry": {
        "type": "Point",
        "coordinates": [
          24.232457,
          44.930465
        ]
      }
    },
    {
      "type": "Feature",
      "properties": {
        "station_id": "53655",
        "name": "Lespezi Bacău h."
      },
      "geometry": {
        "type": "Point",
        "coordinates": [
          26.76867,
          46.665892
        ]
      }
    },
    {
      "type": "Feature",
      "properties": {
        "station_id": "17663",
        "name": "P. mac. R1 Buciumeni"
      },
      "geometry": {
        "type": "Point",
        "coordinates": [
          25.968708,
          44.519159
        ]
      }
    },
    {
      "type": "Feature",
      "properties": {
        "station_id": "30859",
        "name": "Bod Hm."
      },
      "geometry": {
        "type": "Point",
        "coordinates": [
          25.603841,
          45.759193
        ]
      }
    },
    {
      "type": "Feature",
      "properties": {
        "station_id": "51932",
        "name": "Ploieşti Nord"
      },
      "geometry": {
        "type": "Point",
        "coordinates": [
          26.022343,
          44.95562
        ]
      }
    },
    {
      "type": "Feature",
      "properties": {
        "station_id": "13514",
        "name": "Câmpulung"
      },
      "geometry": {
        "type": "Point",
        "coordinates": [
          25.037397,
          45.259294
        ]
      }
    },
    {
      "type": "Feature",
      "properties": {
        "station_id": "23961",
        "name": "Măceu h."
      },
      "geometry": {
        "type": "Point",
        "coordinates": [
          22.992123,
          45.675991
        ]
      }
    },
    {
      "type": "Feature",
      "properties": {
        "station_id": "30536",
        "name": "Poiana Ţapului hc."
      },
      "geometry": {
        "type": "Point",
        "coordinates": [
          25.541353,
          45.390713
        ]
      }
    },
    {
      "type": "Feature",
      "properties": {
        "station_id": "23818",
        "name": "Ponor h."
      },
      "geometry": {
        "type": "Point",
        "coordinates": [
          23.118813,
          45.505834
        ]
      }
    },
    {
      "type": "Feature",
      "properties": {
        "station_id": "13954",
        "name": "Mihai Bravu"
      },
      "geometry": {
        "type": "Point",
        "coordinates": [
          26.082596,
          44.117297
        ]
      }
    },
    {
      "type": "Feature",
      "properties": {
        "station_id": "40684",
        "name": "Topliţa"
      },
      "geometry": {
        "type": "Point",
        "coordinates": [
          25.342975,
          46.924016
        ]
      }
    },
    {
      "type": "Feature",
      "properties": {
        "station_id": "71530",
        "name": "Corlăteşti Hm."
      },
      "geometry": {
        "type": "Point",
        "coordinates": [
          26.119488,
          44.899997
        ]
      }
    },
    {
      "type": "Feature",
      "properties": {
        "station_id": "54520",
        "name": "Berchişeşti Hm."
      },
      "geometry": {
        "type": "Point",
        "coordinates": [
          26.019547,
          47.515897
        ]
      }
    },
    {
      "type": "Feature",
      "properties": {
        "station_id": "80634",
        "name": "Mircea Vodă Hm."
      },
      "geometry": {
        "type": "Point",
        "coordinates": [
          28.143967,
          44.266663
        ]
      }
    },
    {
      "type": "Feature",
      "properties": {
        "station_id": "11047",
        "name": "Igiroasa Hm."
      },
      "geometry": {
        "type": "Point",
        "coordinates": [
          22.974967,
          44.589267
        ]
      }
    },
    {
      "type": "Feature",
      "properties": {
        "station_id": "61341",
        "name": "Şerbeştii Vechi h."
      },
      "geometry": {
        "type": "Point",
        "coordinates": [
          27.87723,
          45.422205
        ]
      }
    },
    {
      "type": "Feature",
      "properties": {
        "station_id": "35407",
        "name": "Salonta"
      },
      "geometry": {
        "type": "Point",
        "coordinates": [
          21.642319,
          46.809452
        ]
      }
    },
    {
      "type": "Feature",
      "properties": {
        "station_id": "31944",
        "name": "Apahida"
      },
      "geometry": {
        "type": "Point",
        "coordinates": [
          23.743049,
          46.791719
        ]
      }
    },
    {
      "type": "Feature",
      "properties": {
        "station_id": "42876",
        "name": "Lunca Mureşului h."
      },
      "geometry": {
        "type": "Point",
        "coordinates": [
          23.918453,
          46.418671
        ]
      }
    },
    {
      "type": "Feature",
      "properties": {
        "station_id": "41391",
        "name": "Băbuţeni Hm."
      },
      "geometry": {
        "type": "Point",
        "coordinates": [
          23.393673,
          47.296926
        ]
      }
    },
    {
      "type": "Feature",
      "properties": {
        "station_id": "24745",
        "name": "Pestişu Mare h."
      },
      "geometry": {
        "type": "Point",
        "coordinates": [
          22.932115,
          45.801938
        ]
      }
    },
    {
      "type": "Feature",
      "properties": {
        "station_id": "55031",
        "name": "Leşu Ilvei Hm."
      },
      "geometry": {
        "type": "Point",
        "coordinates": [
          24.691773,
          47.315572
        ]
      }
    },
    {
      "type": "Feature",
      "properties": {
        "station_id": "50079",
        "name": "Ploieşti Est"
      },
      "geometry": {
        "type": "Point",
        "coordinates": [
          26.080374,
          44.936343
        ]
      }
    },
    {
      "type": "Feature",
      "properties": {
        "station_id": "60622",
        "name": "Munteni Hm."
      },
      "geometry": {
        "type": "Point",
        "coordinates": [
          27.757906,
          46.591726
        ]
      }
    },
    {
      "type": "Feature",
      "properties": {
        "station_id": "33320",
        "name": "Coţofeneşti h."
      },
      "geometry": {
        "type": "Point",
        "coordinates": [
          26.000397,
          45.129448
        ]
      }
    },
    {
      "type": "Feature",
      "properties": {
        "station_id": "32297",
        "name": "Bologa h."
      },
      "geometry": {
        "type": "Point",
        "coordinates": [
          22.880354,
          46.893196
        ]
      }
    },
    {
      "type": "Feature",
      "properties": {
        "station_id": "25347",
        "name": "Orţişoara"
      },
      "geometry": {
        "type": "Point",
        "coordinates": [
          21.190729,
          45.963561
        ]
      }
    },
    {
      "type": "Feature",
      "properties": {
        "station_id": "51401",
        "name": "Lunca Siretului h."
      },
      "geometry": {
        "type": "Point",
        "coordinates": [
          26.694656,
          47.306554
        ]
      }
    },
    {
      "type": "Feature",
      "properties": {
        "station_id": "16372",
        "name": "Sacoşu Mic"
      },
      "geometry": {
        "type": "Point",
        "coordinates": [
          21.426675,
          45.664848
        ]
      }
    },
    {
      "type": "Feature",
      "properties": {
        "station_id": "70201",
        "name": "Armăşeşti Hm."
      },
      "geometry": {
        "type": "Point",
        "coordinates": [
          26.561775,
          44.729708
        ]
      }
    },
    {
      "type": "Feature",
      "properties": {
        "station_id": "23466",
        "name": "Ezureni h."
      },
      "geometry": {
        "type": "Point",
        "coordinates": [
          23.32465,
          45.088601
        ]
      }
    },
    {
      "type": "Feature",
      "properties": {
        "station_id": "20440",
        "name": "Mârşa h."
      },
      "geometry": {
        "type": "Point",
        "coordinates": [
          24.360317,
          45.701653
        ]
      }
    },
    {
      "type": "Feature",
      "properties": {
        "station_id": "11281",
        "name": "Topleţ Hm."
      },
      "geometry": {
        "type": "Point",
        "coordinates": [
          22.385065,
          44.806733
        ]
      }
    },
    {
      "type": "Feature",
      "properties": {
        "station_id": "17302",
        "name": "Ionel hcv."
      },
      "geometry": {
        "type": "Point",
        "coordinates": [
          20.856156,
          45.570557
        ]
      }
    },
    {
      "type": "Feature",
      "properties": {
        "station_id": "16970",
        "name": "Lişava Hm."
      },
      "geometry": {
        "type": "Point",
        "coordinates": [
          21.780813,
          45.105127
        ]
      }
    },
    {
      "type": "Feature",
      "properties": {
        "station_id": "12572",
        "name": "Călineşti Hm."
      },
      "geometry": {
        "type": "Point",
        "coordinates": [
          25.062185,
          44.810419
        ]
      }
    },
    {
      "type": "Feature",
      "properties": {
        "station_id": "11748",
        "name": "Belinţ Hm."
      },
      "geometry": {
        "type": "Point",
        "coordinates": [
          21.762648,
          45.744394
        ]
      }
    },
    {
      "type": "Feature",
      "properties": {
        "station_id": "30483",
        "name": "Comarnic"
      },
      "geometry": {
        "type": "Point",
        "coordinates": [
          25.63274,
          45.242355
        ]
      }
    },
    {
      "type": "Feature",
      "properties": {
        "station_id": "21808",
        "name": "Glogovăţ"
      },
      "geometry": {
        "type": "Point",
        "coordinates": [
          21.4001,
          46.177622
        ]
      }
    },
    {
      "type": "Feature",
      "properties": {
        "station_id": "61523",
        "name": "Buceşti h."
      },
      "geometry": {
        "type": "Point",
        "coordinates": [
          27.528571,
          45.659832
        ]
      }
    },
    {
      "type": "Feature",
      "properties": {
        "station_id": "50251",
        "name": "Pietroasele hc."
      },
      "geometry": {
        "type": "Point",
        "coordinates": [
          26.603516,
          45.063115
        ]
      }
    },
    {
      "type": "Feature",
      "properties": {
        "station_id": "72182",
        "name": "Movila Oii h."
      },
      "geometry": {
        "type": "Point",
        "coordinates": [
          27.073438,
          45.043767
        ]
      }
    },
    {
      "type": "Feature",
      "properties": {
        "station_id": "43416",
        "name": "Cociu h."
      },
      "geometry": {
        "type": "Point",
        "coordinates": [
          24.231785,
          47.197331
        ]
      }
    },
    {
      "type": "Feature",
      "properties": {
        "station_id": "53758",
        "name": "Roznov"
      },
      "geometry": {
        "type": "Point",
        "coordinates": [
          26.508924,
          46.838858
        ]
      }
    },
    {
      "type": "Feature",
      "properties": {
        "station_id": "20414",
        "name": "Avrig Hm."
      },
      "geometry": {
        "type": "Point",
        "coordinates": [
          24.373782,
          45.732272
        ]
      }
    },
    {
      "type": "Feature",
      "properties": {
        "station_id": "14958",
        "name": "Dealul Robului h."
      },
      "geometry": {
        "type": "Point",
        "coordinates": [
          23.694981,
          44.128479
        ]
      }
    },
    {
      "type": "Feature",
      "properties": {
        "station_id": "11657",
        "name": "Găvojdia"
      },
      "geometry": {
        "type": "Point",
        "coordinates": [
          22.024664,
          45.622233
        ]
      }
    },
    {
      "type": "Feature",
      "properties": {
        "station_id": "12924",
        "name": "Slătioara Hm."
      },
      "geometry": {
        "type": "Point",
        "coordinates": [
          24.333734,
          44.382423
        ]
      }
    },
    {
      "type": "Feature",
      "properties": {
        "station_id": "33291",
        "name": "Plopeni Sat Hm."
      },
      "geometry": {
        "type": "Point",
        "coordinates": [
          25.968976,
          45.060663
        ]
      }
    },
    {
      "type": "Feature",
      "properties": {
        "station_id": "44185",
        "name": "Poptelec h."
      },
      "geometry": {
        "type": "Point",
        "coordinates": [
          23.169916,
          47.25059
        ]
      }
    },
    {
      "type": "Feature",
      "properties": {
        "station_id": "12637",
        "name": "Bradu de Sus"
      },
      "geometry": {
        "type": "Point",
        "coordinates": [
          24.915344,
          44.814085
        ]
      }
    },
    {
      "type": "Feature",
      "properties": {
        "station_id": "21638",
        "name": "Bârzava"
      },
      "geometry": {
        "type": "Point",
        "coordinates": [
          21.997181,
          46.102254
        ]
      }
    },
    {
      "type": "Feature",
      "properties": {
        "station_id": "40634",
        "name": "Subcetate Mureş Hm."
      },
      "geometry": {
        "type": "Point",
        "coordinates": [
          25.440376,
          46.862766
        ]
      }
    },
    {
      "type": "Feature",
      "properties": {
        "station_id": "40593",
        "name": "Lăzarea Hm."
      },
      "geometry": {
        "type": "Point",
        "coordinates": [
          25.52895,
          46.742289
        ]
      }
    },
    {
      "type": "Feature",
      "properties": {
        "station_id": "33837",
        "name": "Axente Sever h."
      },
      "geometry": {
        "type": "Point",
        "coordinates": [
          24.21371,
          46.095464
        ]
      }
    },
    {
      "type": "Feature",
      "properties": {
        "station_id": "31190",
        "name": "Albeşti Târnava Hm."
      },
      "geometry": {
        "type": "Point",
        "coordinates": [
          24.855996,
          46.237663
        ]
      }
    },
    {
      "type": "Feature",
      "properties": {
        "station_id": "31437",
        "name": "Micăsasa Hm."
      },
      "geometry": {
        "type": "Point",
        "coordinates": [
          24.111868,
          46.090039
        ]
      }
    },
    {
      "type": "Feature",
      "properties": {
        "station_id": "60593",
        "name": "Crasna"
      },
      "geometry": {
        "type": "Point",
        "coordinates": [
          27.824385,
          46.50705
        ]
      }
    },
    {
      "type": "Feature",
      "properties": {
        "station_id": "50237",
        "name": "Săhăteni Hm."
      },
      "geometry": {
        "type": "Point",
        "coordinates": [
          26.51745,
          45.0299
        ]
      }
    },
    {
      "type": "Feature",
      "properties": {
        "station_id": "20373",
        "name": "Scoreiu h."
      },
      "geometry": {
        "type": "Point",
        "coordinates": [
          24.530359,
          45.77156
        ]
      }
    },
    {
      "type": "Feature",
      "properties": {
        "station_id": "21054",
        "name": "Blandiana Hm."
      },
      "geometry": {
        "type": "Point",
        "coordinates": [
          23.441099,
          45.966694
        ]
      }
    },
    {
      "type": "Feature",
      "properties": {
        "station_id": "25218",
        "name": "Gomila h."
      },
      "geometry": {
        "type": "Point",
        "coordinates": [
          21.518676,
          46.008616
        ]
      }
    },
    {
      "type": "Feature",
      "properties": {
        "station_id": "55823",
        "name": "Galanesti"
      },
      "geometry": {
        "type": "Point",
        "coordinates": [
          25.802432,
          47.906199
        ]
      }
    },
    {
      "type": "Feature",
      "properties": {
        "station_id": "54908",
        "name": "Coşna Hm."
      },
      "geometry": {
        "type": "Point",
        "coordinates": [
          25.151213,
          47.371629
        ]
      }
    },
    {
      "type": "Feature",
      "properties": {
        "station_id": "15110",
        "name": "Maglavit h."
      },
      "geometry": {
        "type": "Point",
        "coordinates": [
          23.121841,
          44.009975
        ]
      }
    },
    {
      "type": "Feature",
      "properties": {
        "station_id": "24707",
        "name": "Bârcea Mare h."
      },
      "geometry": {
        "type": "Point",
        "coordinates": [
          22.965341,
          45.841149
        ]
      }
    },
    {
      "type": "Feature",
      "properties": {
        "station_id": "17015",
        "name": "Anina"
      },
      "geometry": {
        "type": "Point",
        "coordinates": [
          21.852716,
          45.088934
        ]
      }
    },
    {
      "type": "Feature",
      "properties": {
        "station_id": "40532",
        "name": "Sugau h"
      },
      "geometry": {
        "type": "Point",
        "coordinates": [
          25.617873,
          46.645481
        ]
      }
    },
    {
      "type": "Feature",
      "properties": {
        "station_id": "24915",
        "name": "Holdea Hm."
      },
      "geometry": {
        "type": "Point",
        "coordinates": [
          22.393306,
          45.894701
        ]
      }
    },
    {
      "type": "Feature",
      "properties": {
        "station_id": "70835",
        "name": "Barboşi"
      },
      "geometry": {
        "type": "Point",
        "coordinates": [
          27.988383,
          45.40232
        ]
      }
    },
    {
      "type": "Feature",
      "properties": {
        "station_id": "24044",
        "name": "Băcia Hm."
      },
      "geometry": {
        "type": "Point",
        "coordinates": [
          22.99996,
          45.792599
        ]
      }
    },
    {
      "type": "Feature",
      "properties": {
        "station_id": "14221",
        "name": "Răsuceni h."
      },
      "geometry": {
        "type": "Point",
        "coordinates": [
          25.628148,
          44.06451
        ]
      }
    },
    {
      "type": "Feature",
      "properties": {
        "station_id": "32998",
        "name": "Adinca Hm"
      },
      "geometry": {
        "type": "Point",
        "coordinates": [
          25.596419,
          44.921307
        ]
      }
    },
    {
      "type": "Feature",
      "properties": {
        "station_id": "31619",
        "name": "Coşlariu Gr. P. Mureş"
      },
      "geometry": {
        "type": "Point",
        "coordinates": [
          23.691895,
          46.175461
        ]
      }
    },
    {
      "type": "Feature",
      "properties": {
        "station_id": "51982",
        "name": "Scăieni h."
      },
      "geometry": {
        "type": "Point",
        "coordinates": [
          26.025854,
          45.016268
        ]
      }
    },
    {
      "type": "Feature",
      "properties": {
        "station_id": "54465",
        "name": "Stroieşti"
      },
      "geometry": {
        "type": "Point",
        "coordinates": [
          26.112992,
          47.615957
        ]
      }
    },
    {
      "type": "Feature",
      "properties": {
        "station_id": "25024",
        "name": "Traian Vuia h."
      },
      "geometry": {
        "type": "Point",
        "coordinates": [
          22.024529,
          45.812599
        ]
      }
    },
    {
      "type": "Feature",
      "properties": {
        "station_id": "12792",
        "name": "Corbu"
      },
      "geometry": {
        "type": "Point",
        "coordinates": [
          24.709171,
          44.495832
        ]
      }
    },
    {
      "type": "Feature",
      "properties": {
        "station_id": "23870",
        "name": "Ciopea h."
      },
      "geometry": {
        "type": "Point",
        "coordinates": [
          22.976274,
          45.562784
        ]
      }
    },
    {
      "type": "Feature",
      "properties": {
        "station_id": "13423",
        "name": "Stâlpeni Hm."
      },
      "geometry": {
        "type": "Point",
        "coordinates": [
          24.968302,
          45.030937
        ]
      }
    },
    {
      "type": "Feature",
      "properties": {
        "station_id": "51451",
        "name": "Dolhasca"
      },
      "geometry": {
        "type": "Point",
        "coordinates": [
          26.608886,
          47.426567
        ]
      }
    },
    {
      "type": "Feature",
      "properties": {
        "station_id": "60309",
        "name": "Tecuci"
      },
      "geometry": {
        "type": "Point",
        "coordinates": [
          27.423228,
          45.835275
        ]
      }
    },
    {
      "type": "Feature",
      "properties": {
        "station_id": "11449",
        "name": "Armeniş"
      },
      "geometry": {
        "type": "Point",
        "coordinates": [
          22.308975,
          45.196759
        ]
      }
    },
    {
      "type": "Feature",
      "properties": {
        "station_id": "23777",
        "name": "Baru Mare h."
      },
      "geometry": {
        "type": "Point",
        "coordinates": [
          23.166398,
          45.466026
        ]
      }
    },
    {
      "type": "Feature",
      "properties": {
        "station_id": "71736",
        "name": "Căzăneşti"
      },
      "geometry": {
        "type": "Point",
        "coordinates": [
          27.003367,
          44.634129
        ]
      }
    },
    {
      "type": "Feature",
      "properties": {
        "station_id": "62773",
        "name": "Podu Iloaiei"
      },
      "geometry": {
        "type": "Point",
        "coordinates": [
          27.284543,
          47.209155
        ]
      }
    },
    {
      "type": "Feature",
      "properties": {
        "station_id": "21327",
        "name": "Mintia h."
      },
      "geometry": {
        "type": "Point",
        "coordinates": [
          22.825551,
          45.916589
        ]
      }
    },
    {
      "type": "Feature",
      "properties": {
        "station_id": "15445",
        "name": "Motru Est Gr. Călători"
      },
      "geometry": {
        "type": "Point",
        "coordinates": [
          22.975934,
          44.794514
        ]
      }
    },
    {
      "type": "Feature",
      "properties": {
        "station_id": "12510",
        "name": "Găeşti"
      },
      "geometry": {
        "type": "Point",
        "coordinates": [
          25.30424,
          44.713934
        ]
      }
    },
    {
      "type": "Feature",
      "properties": {
        "station_id": "41262",
        "name": "Căpâlna pe Someş h."
      },
      "geometry": {
        "type": "Point",
        "coordinates": [
          23.743887,
          47.245881
        ]
      }
    },
    {
      "type": "Feature",
      "properties": {
        "station_id": "10940",
        "name": "Butoieşti Hm."
      },
      "geometry": {
        "type": "Point",
        "coordinates": [
          23.355388,
          44.586752
        ]
      }
    },
    {
      "type": "Feature",
      "properties": {
        "station_id": "50988",
        "name": "Faraoani Hm."
      },
      "geometry": {
        "type": "Point",
        "coordinates": [
          26.965635,
          46.39516
        ]
      }
    },
    {
      "type": "Feature",
      "properties": {
        "station_id": "61080",
        "name": "Cristeşti Jijia"
      },
      "geometry": {
        "type": "Point",
        "coordinates": [
          27.726347,
          47.171084
        ]
      }
    },
    {
      "type": "Feature",
      "properties": {
        "station_id": "42723",
        "name": "Ogra h."
      },
      "geometry": {
        "type": "Point",
        "coordinates": [
          24.31939,
          46.443147
        ]
      }
    },
    {
      "type": "Feature",
      "properties": {
        "station_id": "53007",
        "name": "Oneşti"
      },
      "geometry": {
        "type": "Point",
        "coordinates": [
          26.778034,
          46.259349
        ]
      }
    },
    {
      "type": "Feature",
      "properties": {
        "station_id": "83026",
        "name": "Baia Dobrogea"
      },
      "geometry": {
        "type": "Point",
        "coordinates": [
          28.683705,
          44.728446
        ]
      }
    },
    {
      "type": "Feature",
      "properties": {
        "station_id": "53356",
        "name": "Tarcău h."
      },
      "geometry": {
        "type": "Point",
        "coordinates": [
          25.974335,
          46.567143
        ]
      }
    },
    {
      "type": "Feature",
      "properties": {
        "station_id": "71516",
        "name": "Dâmbu Hm."
      },
      "geometry": {
        "type": "Point",
        "coordinates": [
          26.071882,
          44.922734
        ]
      }
    },
    {
      "type": "Feature",
      "properties": {
        "station_id": "53394",
        "name": "Livezi Ciuc"
      },
      "geometry": {
        "type": "Point",
        "coordinates": [
          25.889544,
          46.526134
        ]
      }
    },
    {
      "type": "Feature",
      "properties": {
        "station_id": "40220",
        "name": "Bicsadu Oltului Hm."
      },
      "geometry": {
        "type": "Point",
        "coordinates": [
          25.84686,
          46.100152
        ]
      }
    },
    {
      "type": "Feature",
      "properties": {
        "station_id": "20141",
        "name": "Perşani h."
      },
      "geometry": {
        "type": "Point",
        "coordinates": [
          25.197638,
          45.787187
        ]
      }
    },
    {
      "type": "Feature",
      "properties": {
        "station_id": "43466",
        "name": "Salva"
      },
      "geometry": {
        "type": "Point",
        "coordinates": [
          24.340671,
          47.302105
        ]
      }
    },
    {
      "type": "Feature",
      "properties": {
        "station_id": "25177",
        "name": "Remetea Mică"
      },
      "geometry": {
        "type": "Point",
        "coordinates": [
          21.468238,
          45.97117
        ]
      }
    },
    {
      "type": "Feature",
      "properties": {
        "station_id": "70603",
        "name": "Urleasca Hm."
      },
      "geometry": {
        "type": "Point",
        "coordinates": [
          27.621106,
          45.167987
        ]
      }
    },
    {
      "type": "Feature",
      "properties": {
        "station_id": "72144",
        "name": "Tăbărăşti h."
      },
      "geometry": {
        "type": "Point",
        "coordinates": [
          26.90489,
          45.081364
        ]
      }
    },
    {
      "type": "Feature",
      "properties": {
        "station_id": "55172",
        "name": "Rebrişoara Hm."
      },
      "geometry": {
        "type": "Point",
        "coordinates": [
          24.47191,
          47.287557
        ]
      }
    },
    {
      "type": "Feature",
      "properties": {
        "station_id": "52986",
        "name": "Borzeşti Bacău h."
      },
      "geometry": {
        "type": "Point",
        "coordinates": [
          26.816687,
          46.243992
        ]
      }
    },
    {
      "type": "Feature",
      "properties": {
        "station_id": "51126",
        "name": "Galbeni"
      },
      "geometry": {
        "type": "Point",
        "coordinates": [
          26.882259,
          46.747922
        ]
      }
    },
    {
      "type": "Feature",
      "properties": {
        "station_id": "41494",
        "name": "Benesat Hm."
      },
      "geometry": {
        "type": "Point",
        "coordinates": [
          23.291533,
          47.406979
        ]
      }
    },
    {
      "type": "Feature",
      "properties": {
        "station_id": "53710",
        "name": "Podoleni Hm."
      },
      "geometry": {
        "type": "Point",
        "coordinates": [
          26.615649,
          46.797009
        ]
      }
    },
    {
      "type": "Feature",
      "properties": {
        "station_id": "23583",
        "name": "Livezeni"
      },
      "geometry": {
        "type": "Point",
        "coordinates": [
          23.36762,
          45.376828
        ]
      }
    },
    {
      "type": "Feature",
      "properties": {
        "station_id": "10744",
        "name": "Bordei hc.(913)"
      },
      "geometry": {
        "type": "Point",
        "coordinates": [
          23.833762,
          44.322094
        ]
      }
    },
    {
      "type": "Feature",
      "properties": {
        "station_id": "70172",
        "name": "Dridu Hm."
      },
      "geometry": {
        "type": "Point",
        "coordinates": [
          26.449318,
          44.681443
        ]
      }
    },
    {
      "type": "Feature",
      "properties": {
        "station_id": "13382",
        "name": "Ciumeşti"
      },
      "geometry": {
        "type": "Point",
        "coordinates": [
          24.884989,
          44.92634
        ]
      }
    },
    {
      "type": "Feature",
      "properties": {
        "station_id": "53045",
        "name": "Viişoara h"
      },
      "geometry": {
        "type": "Point",
        "coordinates": [
          26.670272,
          46.274965
        ]
      }
    },
    {
      "type": "Feature",
      "properties": {
        "station_id": "61418",
        "name": "Vasile Alecsandri h."
      },
      "geometry": {
        "type": "Point",
        "coordinates": [
          27.796999,
          45.451063
        ]
      }
    },
    {
      "type": "Feature",
      "properties": {
        "station_id": "16308",
        "name": "Giroc h."
      },
      "geometry": {
        "type": "Point",
        "coordinates": [
          21.21125,
          45.710667
        ]
      }
    },
    {
      "type": "Feature",
      "properties": {
        "station_id": "71619",
        "name": "Ciorani Hm."
      },
      "geometry": {
        "type": "Point",
        "coordinates": [
          26.384614,
          44.789803
        ]
      }
    },
    {
      "type": "Feature",
      "properties": {
        "station_id": "30938",
        "name": "Apaţa"
      },
      "geometry": {
        "type": "Point",
        "coordinates": [
          25.536259,
          45.952637
        ]
      }
    },
    {
      "type": "Feature",
      "properties": {
        "station_id": "60804",
        "name": "Bârnova Hm."
      },
      "geometry": {
        "type": "Point",
        "coordinates": [
          27.568645,
          47.013145
        ]
      }
    },
    {
      "type": "Feature",
      "properties": {
        "station_id": "70550",
        "name": "Deduleşti Hm."
      },
      "geometry": {
        "type": "Point",
        "coordinates": [
          27.399664,
          45.108987
        ]
      }
    },
    {
      "type": "Feature",
      "properties": {
        "station_id": "21066",
        "name": "Tărtăria h."
      },
      "geometry": {
        "type": "Point",
        "coordinates": [
          23.410951,
          45.948171
        ]
      }
    },
    {
      "type": "Feature",
      "properties": {
        "station_id": "80189",
        "name": "Islaz h."
      },
      "geometry": {
        "type": "Point",
        "coordinates": [
          26.38259,
          44.457682
        ]
      }
    },
    {
      "type": "Feature",
      "properties": {
        "station_id": "10421",
        "name": "Atârnaţi Hm."
      },
      "geometry": {
        "type": "Point",
        "coordinates": [
          25.062737,
          44.136248
        ]
      }
    },
    {
      "type": "Feature",
      "properties": {
        "station_id": "45048",
        "name": "Diosig Hm."
      },
      "geometry": {
        "type": "Point",
        "coordinates": [
          22.012339,
          47.297368
        ]
      }
    },
    {
      "type": "Feature",
      "properties": {
        "station_id": "81092",
        "name": "Costineşti Tabără hc."
      },
      "geometry": {
        "type": "Point",
        "coordinates": [
          28.631821,
          43.942706
        ]
      }
    },
    {
      "type": "Feature",
      "properties": {
        "station_id": "40517",
        "name": "Izvoru Mureşului Hm."
      },
      "geometry": {
        "type": "Point",
        "coordinates": [
          25.715969,
          46.626862
        ]
      }
    },
    {
      "type": "Feature",
      "properties": {
        "station_id": "55550",
        "name": "Poiana Stampei"
      },
      "geometry": {
        "type": "Point",
        "coordinates": [
          25.132345,
          47.313055
        ]
      }
    },
    {
      "type": "Feature",
      "properties": {
        "station_id": "32118",
        "name": "Mera Hm."
      },
      "geometry": {
        "type": "Point",
        "coordinates": [
          23.445782,
          46.806915
        ]
      }
    },
    {
      "type": "Feature",
      "properties": {
        "station_id": "53150",
        "name": "Valea Uzului Hm."
      },
      "geometry": {
        "type": "Point",
        "coordinates": [
          26.49277,
          46.380348
        ]
      }
    },
    {
      "type": "Feature",
      "properties": {
        "station_id": "12857",
        "name": "Bâlteni Olt Hm."
      },
      "geometry": {
        "type": "Point",
        "coordinates": [
          24.521619,
          44.454521
        ]
      }
    },
    {
      "type": "Feature",
      "properties": {
        "station_id": "14257",
        "name": "Cetatea h."
      },
      "geometry": {
        "type": "Point",
        "coordinates": [
          25.954717,
          43.939174
        ]
      }
    },
    {
      "type": "Feature",
      "properties": {
        "station_id": "23038",
        "name": "Alba Iulia"
      },
      "geometry": {
        "type": "Point",
        "coordinates": [
          23.576137,
          46.056159
        ]
      }
    },
    {
      "type": "Feature",
      "properties": {
        "station_id": "40050",
        "name": "Prejmer Hm."
      },
      "geometry": {
        "type": "Point",
        "coordinates": [
          25.777618,
          45.738918
        ]
      }
    },
    {
      "type": "Feature",
      "properties": {
        "station_id": "45464",
        "name": "Ram. Botiz h."
      },
      "geometry": {
        "type": "Point",
        "coordinates": [
          22.921237,
          47.836514
        ]
      }
    },
    {
      "type": "Feature",
      "properties": {
        "station_id": "60335",
        "name": "Tecuci Nord hc.(605)"
      },
      "geometry": {
        "type": "Point",
        "coordinates": [
          27.411614,
          45.84572
        ]
      }
    },
    {
      "type": "Feature",
      "properties": {
        "station_id": "40402",
        "name": "Siculeni"
      },
      "geometry": {
        "type": "Point",
        "coordinates": [
          25.774125,
          46.431235
        ]
      }
    },
    {
      "type": "Feature",
      "properties": {
        "station_id": "10500",
        "name": "Radomireşti Hm."
      },
      "geometry": {
        "type": "Point",
        "coordinates": [
          24.670484,
          44.111159
        ]
      }
    },
    {
      "type": "Feature",
      "properties": {
        "station_id": "21731",
        "name": "Păuliş Hm."
      },
      "geometry": {
        "type": "Point",
        "coordinates": [
          21.610516,
          46.107109
        ]
      }
    },
    {
      "type": "Feature",
      "properties": {
        "station_id": "24472",
        "name": "Iscroni"
      },
      "geometry": {
        "type": "Point",
        "coordinates": [
          23.335084,
          45.37884
        ]
      }
    },
    {
      "type": "Feature",
      "properties": {
        "station_id": "80751",
        "name": "Poarta Albă h."
      },
      "geometry": {
        "type": "Point",
        "coordinates": [
          28.391017,
          44.205631
        ]
      }
    },
    {
      "type": "Feature",
      "properties": {
        "station_id": "50885",
        "name": "Adjudu Vechi h."
      },
      "geometry": {
        "type": "Point",
        "coordinates": [
          27.168948,
          46.132162
        ]
      }
    },
    {
      "type": "Feature",
      "properties": {
        "station_id": "70586",
        "name": "Plopu"
      },
      "geometry": {
        "type": "Point",
        "coordinates": [
          27.5218,
          45.140092
        ]
      }
    },
    {
      "type": "Feature",
      "properties": {
        "station_id": "14312",
        "name": "Roşiori Hm."
      },
      "geometry": {
        "type": "Point",
        "coordinates": [
          25.005814,
          44.109581
        ]
      }
    },
    {
      "type": "Feature",
      "properties": {
        "station_id": "51530",
        "name": "Vereşti"
      },
      "geometry": {
        "type": "Point",
        "coordinates": [
          26.441033,
          47.607783
        ]
      }
    },
    {
      "type": "Feature",
      "properties": {
        "station_id": "60426",
        "name": "Nichişeni"
      },
      "geometry": {
        "type": "Point",
        "coordinates": [
          27.457753,
          46.045041
        ]
      }
    },
    {
      "type": "Feature",
      "properties": {
        "station_id": "61028",
        "name": "Remiza T Socola h."
      },
      "geometry": {
        "type": "Point",
        "coordinates": [
          27.639681,
          47.14033
        ]
      }
    },
    {
      "type": "Feature",
      "properties": {
        "station_id": "70031",
        "name": "Mogoşoaia"
      },
      "geometry": {
        "type": "Point",
        "coordinates": [
          26.023404,
          44.535652
        ]
      }
    },
    {
      "type": "Feature",
      "properties": {
        "station_id": "32522",
        "name": "Ţeţchea hc."
      },
      "geometry": {
        "type": "Point",
        "coordinates": [
          22.318121,
          47.042814
        ]
      }
    },
    {
      "type": "Feature",
      "properties": {
        "station_id": "23387",
        "name": "Budieni h."
      },
      "geometry": {
        "type": "Point",
        "coordinates": [
          23.398711,
          45.021014
        ]
      }
    },
    {
      "type": "Feature",
      "properties": {
        "station_id": "60050",
        "name": "Udresti hc"
      },
      "geometry": {
        "type": "Point",
        "coordinates": [
          27.230081,
          45.183645
        ]
      }
    },
    {
      "type": "Feature",
      "properties": {
        "station_id": "30653",
        "name": "Timişu de Jos h."
      },
      "geometry": {
        "type": "Point",
        "coordinates": [
          25.623041,
          45.585381
        ]
      }
    },
    {
      "type": "Feature",
      "properties": {
        "station_id": "71592",
        "name": "Hătcărău h."
      },
      "geometry": {
        "type": "Point",
        "coordinates": [
          26.326922,
          44.813518
        ]
      }
    },
    {
      "type": "Feature",
      "properties": {
        "station_id": "42852",
        "name": "Gligoreşti Hm."
      },
      "geometry": {
        "type": "Point",
        "coordinates": [
          23.996265,
          46.441946
        ]
      }
    },
    {
      "type": "Feature",
      "properties": {
        "station_id": "50213",
        "name": "Mizil"
      },
      "geometry": {
        "type": "Point",
        "coordinates": [
          26.438141,
          44.99451
        ]
      }
    },
    {
      "type": "Feature",
      "properties": {
        "station_id": "20531",
        "name": "Veştem h."
      },
      "geometry": {
        "type": "Point",
        "coordinates": [
          24.227122,
          45.722271
        ]
      }
    },
    {
      "type": "Feature",
      "properties": {
        "station_id": "12766",
        "name": "Stolnici Hm."
      },
      "geometry": {
        "type": "Point",
        "coordinates": [
          24.781256,
          44.5493
        ]
      }
    },
    {
      "type": "Feature",
      "properties": {
        "station_id": "24082",
        "name": "Simeria Triaj Gr D"
      },
      "geometry": {
        "type": "Point",
        "coordinates": [
          23.01245,
          45.828802
        ]
      }
    },
    {
      "type": "Feature",
      "properties": {
        "station_id": "50811",
        "name": "Adjud"
      },
      "geometry": {
        "type": "Point",
        "coordinates": [
          27.190995,
          46.100473
        ]
      }
    },
    {
      "type": "Feature",
      "properties": {
        "station_id": "15653",
        "name": "Ezeriş h."
      },
      "geometry": {
        "type": "Point",
        "coordinates": [
          21.908091,
          45.399909
        ]
      }
    },
    {
      "type": "Feature",
      "properties": {
        "station_id": "70627",
        "name": "Traian Sat Hm."
      },
      "geometry": {
        "type": "Point",
        "coordinates": [
          27.731899,
          45.186994
        ]
      }
    },
    {
      "type": "Feature",
      "properties": {
        "station_id": "30469",
        "name": "Nistoreşti h."
      },
      "geometry": {
        "type": "Point",
        "coordinates": [
          25.672586,
          45.19493
        ]
      }
    },
    {
      "type": "Feature",
      "properties": {
        "station_id": "23973",
        "name": "Ruşi h."
      },
      "geometry": {
        "type": "Point",
        "coordinates": [
          22.989098,
          45.698359
        ]
      }
    },
    {
      "type": "Feature",
      "properties": {
        "station_id": "17259",
        "name": "Cenei h."
      },
      "geometry": {
        "type": "Point",
        "coordinates": [
          20.88765,
          45.709479
        ]
      }
    },
    {
      "type": "Feature",
      "properties": {
        "station_id": "31645",
        "name": "Teiuş"
      },
      "geometry": {
        "type": "Point",
        "coordinates": [
          23.691358,
          46.203605
        ]
      }
    },
    {
      "type": "Feature",
      "properties": {
        "station_id": "40866",
        "name": "Morăreni h."
      },
      "geometry": {
        "type": "Point",
        "coordinates": [
          24.82334,
          46.924922
        ]
      }
    },
    {
      "type": "Feature",
      "properties": {
        "station_id": "51140",
        "name": "Săcueni Roman Hm."
      },
      "geometry": {
        "type": "Point",
        "coordinates": [
          26.880051,
          46.846872
        ]
      }
    },
    {
      "type": "Feature",
      "properties": {
        "station_id": "27515",
        "name": "Popesti Vilcea"
      },
      "geometry": {
        "type": "Point",
        "coordinates": [
          24.083095,
          44.987863
        ]
      }
    },
    {
      "type": "Feature",
      "properties": {
        "station_id": "52792",
        "name": "Panciu"
      },
      "geometry": {
        "type": "Point",
        "coordinates": [
          27.097673,
          45.908872
        ]
      }
    },
    {
      "type": "Feature",
      "properties": {
        "station_id": "45438",
        "name": "Satu Mare Sud"
      },
      "geometry": {
        "type": "Point",
        "coordinates": [
          22.87014,
          47.772063
        ]
      }
    },
    {
      "type": "Feature",
      "properties": {
        "station_id": "61420",
        "name": "Independenţa Hm."
      },
      "geometry": {
        "type": "Point",
        "coordinates": [
          27.762443,
          45.478232
        ]
      }
    },
    {
      "type": "Feature",
      "properties": {
        "station_id": "44020",
        "name": "Jucu Hm."
      },
      "geometry": {
        "type": "Point",
        "coordinates": [
          23.763981,
          46.862668
        ]
      }
    },
    {
      "type": "Feature",
      "properties": {
        "station_id": "60490",
        "name": "Bârlad"
      },
      "geometry": {
        "type": "Point",
        "coordinates": [
          27.673748,
          46.215162
        ]
      }
    },
    {
      "type": "Feature",
      "properties": {
        "station_id": "55275",
        "name": "Pârteşti h."
      },
      "geometry": {
        "type": "Point",
        "coordinates": [
          25.976218,
          47.644666
        ]
      }
    },
    {
      "type": "Feature",
      "properties": {
        "station_id": "31853",
        "name": "Cânepişti h."
      },
      "geometry": {
        "type": "Point",
        "coordinates": [
          23.847135,
          46.607565
        ]
      }
    },
    {
      "type": "Feature",
      "properties": {
        "station_id": "54996",
        "name": "Ilva Mare Hm."
      },
      "geometry": {
        "type": "Point",
        "coordinates": [
          24.872468,
          47.364147
        ]
      }
    },
    {
      "type": "Feature",
      "properties": {
        "station_id": "41418",
        "name": "Surduc Sălaj Hm."
      },
      "geometry": {
        "type": "Point",
        "coordinates": [
          23.339492,
          47.248658
        ]
      }
    },
    {
      "type": "Feature",
      "properties": {
        "station_id": "81016",
        "name": "Agigea Nord"
      },
      "geometry": {
        "type": "Point",
        "coordinates": [
          28.634615,
          44.124973
        ]
      }
    },
    {
      "type": "Feature",
      "properties": {
        "station_id": "22670",
        "name": "Valea Mărului Hm."
      },
      "geometry": {
        "type": "Point",
        "coordinates": [
          24.265051,
          45.602155
        ]
      }
    },
    {
      "type": "Feature",
      "properties": {
        "station_id": "24771",
        "name": "Hunedoara h."
      },
      "geometry": {
        "type": "Point",
        "coordinates": [
          22.911609,
          45.782833
        ]
      }
    },
    {
      "type": "Feature",
      "properties": {
        "station_id": "70794",
        "name": "Zagna Vădeni h."
      },
      "geometry": {
        "type": "Point",
        "coordinates": [
          27.962263,
          45.379741
        ]
      }
    },
    {
      "type": "Feature",
      "properties": {
        "station_id": "55263",
        "name": "Soloneţ h."
      },
      "geometry": {
        "type": "Point",
        "coordinates": [
          26.00836,
          47.667005
        ]
      }
    },
    {
      "type": "Feature",
      "properties": {
        "station_id": "62864",
        "name": "Pietrişu h."
      },
      "geometry": {
        "type": "Point",
        "coordinates": [
          26.953158,
          47.209188
        ]
      }
    },
    {
      "type": "Feature",
      "properties": {
        "station_id": "12778",
        "name": "Hârseşti Hm."
      },
      "geometry": {
        "type": "Point",
        "coordinates": [
          24.756195,
          44.517165
        ]
      }
    },
    {
      "type": "Feature",
      "properties": {
        "station_id": "13112",
        "name": "Podu Rizii h."
      },
      "geometry": {
        "type": "Point",
        "coordinates": [
          25.557485,
          44.713038
        ]
      }
    },
    {
      "type": "Feature",
      "properties": {
        "station_id": "16243",
        "name": "Reşiţa Noua h."
      },
      "geometry": {
        "type": "Point",
        "coordinates": [
          21.881166,
          45.309537
        ]
      }
    },
    {
      "type": "Feature",
      "properties": {
        "station_id": "23454",
        "name": "Ecaterina Teodoroiu"
      },
      "geometry": {
        "type": "Point",
        "coordinates": [
          23.301753,
          45.066487
        ]
      }
    },
    {
      "type": "Feature",
      "properties": {
        "station_id": "62125",
        "name": "Bursuci hc"
      },
      "geometry": {
        "type": "Point",
        "coordinates": [
          27.900533,
          46.253704
        ]
      }
    },
    {
      "type": "Feature",
      "properties": {
        "station_id": "71554",
        "name": "Trestieni h."
      },
      "geometry": {
        "type": "Point",
        "coordinates": [
          26.178016,
          44.872258
        ]
      }
    },
    {
      "type": "Feature",
      "properties": {
        "station_id": "82345",
        "name": "Movila Hm."
      },
      "geometry": {
        "type": "Point",
        "coordinates": [
          27.7179,
          44.539846
        ]
      }
    },
    {
      "type": "Feature",
      "properties": {
        "station_id": "62101",
        "name": "Horga hc"
      },
      "geometry": {
        "type": "Point",
        "coordinates": [
          27.867113,
          46.264565
        ]
      }
    },
    {
      "type": "Feature",
      "properties": {
        "station_id": "20971",
        "name": "Sebeş Alba"
      },
      "geometry": {
        "type": "Point",
        "coordinates": [
          23.580031,
          45.957634
        ]
      }
    },
    {
      "type": "Feature",
      "properties": {
        "station_id": "10782",
        "name": "Craiova Triaj hc."
      },
      "geometry": {
        "type": "Point",
        "coordinates": [
          23.789783,
          44.339486
        ]
      }
    },
    {
      "type": "Feature",
      "properties": {
        "station_id": "42503",
        "name": "Petelea h."
      },
      "geometry": {
        "type": "Point",
        "coordinates": [
          24.713822,
          46.739981
        ]
      }
    },
    {
      "type": "Feature",
      "properties": {
        "station_id": "43442",
        "name": "Nimigea Hm."
      },
      "geometry": {
        "type": "Point",
        "coordinates": [
          24.299971,
          47.247962
        ]
      }
    },
    {
      "type": "Feature",
      "properties": {
        "station_id": "24032",
        "name": "Batiz h."
      },
      "geometry": {
        "type": "Point",
        "coordinates": [
          22.998457,
          45.775678
        ]
      }
    },
    {
      "type": "Feature",
      "properties": {
        "station_id": "44056",
        "name": "Fundătura h."
      },
      "geometry": {
        "type": "Point",
        "coordinates": [
          23.796928,
          46.9504
        ]
      }
    },
    {
      "type": "Feature",
      "properties": {
        "station_id": "83090",
        "name": "Babadag"
      },
      "geometry": {
        "type": "Point",
        "coordinates": [
          28.706493,
          44.892505
        ]
      }
    },
    {
      "type": "Feature",
      "properties": {
        "station_id": "82955",
        "name": "Cogealac"
      },
      "geometry": {
        "type": "Point",
        "coordinates": [
          28.56582,
          44.570974
        ]
      }
    },
    {
      "type": "Feature",
      "properties": {
        "station_id": "22163",
        "name": "Găneasa Olt h."
      },
      "geometry": {
        "type": "Point",
        "coordinates": [
          24.262934,
          44.419493
        ]
      }
    },
    {
      "type": "Feature",
      "properties": {
        "station_id": "18100",
        "name": "Roşia Jiu h."
      },
      "geometry": {
        "type": "Point",
        "coordinates": [
          23.198037,
          44.895467
        ]
      }
    },
    {
      "type": "Feature",
      "properties": {
        "station_id": "44276",
        "name": "Guruslău h."
      },
      "geometry": {
        "type": "Point",
        "coordinates": [
          22.977625,
          47.255883
        ]
      }
    },
    {
      "type": "Feature",
      "properties": {
        "station_id": "14726",
        "name": "Romula Hm."
      },
      "geometry": {
        "type": "Point",
        "coordinates": [
          24.401109,
          44.17749
        ]
      }
    },
    {
      "type": "Feature",
      "properties": {
        "station_id": "82204",
        "name": "Călăraşi Sud"
      },
      "geometry": {
        "type": "Point",
        "coordinates": [
          27.33366,
          44.200571
        ]
      }
    },
    {
      "type": "Feature",
      "properties": {
        "station_id": "24927",
        "name": "Coşteiu de Sus h."
      },
      "geometry": {
        "type": "Point",
        "coordinates": [
          22.357079,
          45.893643
        ]
      }
    },
    {
      "type": "Feature",
      "properties": {
        "station_id": "81119",
        "name": "Costineşti"
      },
      "geometry": {
        "type": "Point",
        "coordinates": [
          28.636386,
          43.959612
        ]
      }
    },
    {
      "type": "Feature",
      "properties": {
        "station_id": "45452",
        "name": "Satu Mare"
      },
      "geometry": {
        "type": "Point",
        "coordinates": [
          22.894596,
          47.796293
        ]
      }
    },
    {
      "type": "Feature",
      "properties": {
        "station_id": "23179",
        "name": "Floreşti hc."
      },
      "geometry": {
        "type": "Point",
        "coordinates": [
          23.514179,
          44.624094
        ]
      }
    },
    {
      "type": "Feature",
      "properties": {
        "station_id": "32015",
        "name": "Cluj Napoca"
      },
      "geometry": {
        "type": "Point",
        "coordinates": [
          23.586925,
          46.784618
        ]
      }
    },
    {
      "type": "Feature",
      "properties": {
        "station_id": "50691",
        "name": "Mărăşeşti"
      },
      "geometry": {
        "type": "Point",
        "coordinates": [
          27.215047,
          45.876862
        ]
      }
    },
    {
      "type": "Feature",
      "properties": {
        "station_id": "40335",
        "name": "Sântimbru Ciuc h."
      },
      "geometry": {
        "type": "Point",
        "coordinates": [
          25.874484,
          46.287859
        ]
      }
    },
    {
      "type": "Feature",
      "properties": {
        "station_id": "18070",
        "name": "Bilteni h"
      },
      "geometry": {
        "type": "Point",
        "coordinates": [
          23.273447,
          44.859434
        ]
      }
    },
    {
      "type": "Feature",
      "properties": {
        "station_id": "15029",
        "name": "Siliştea Crucii h."
      },
      "geometry": {
        "type": "Point",
        "coordinates": [
          23.468299,
          44.031925
        ]
      }
    },
    {
      "type": "Feature",
      "properties": {
        "station_id": "18112",
        "name": "Rovinari Sud h."
      },
      "geometry": {
        "type": "Point",
        "coordinates": [
          23.170833,
          44.89873
        ]
      }
    },
    {
      "type": "Feature",
      "properties": {
        "station_id": "41248",
        "name": "Câţcău h."
      },
      "geometry": {
        "type": "Point",
        "coordinates": [
          23.776986,
          47.212661
        ]
      }
    },
    {
      "type": "Feature",
      "properties": {
        "station_id": "32508",
        "name": "Aleşd"
      },
      "geometry": {
        "type": "Point",
        "coordinates": [
          22.356859,
          47.04
        ]
      }
    },
    {
      "type": "Feature",
      "properties": {
        "station_id": "31712",
        "name": "Mirăslău h."
      },
      "geometry": {
        "type": "Point",
        "coordinates": [
          23.720778,
          46.361268
        ]
      }
    },
    {
      "type": "Feature",
      "properties": {
        "station_id": "11085",
        "name": "Balota"
      },
      "geometry": {
        "type": "Point",
        "coordinates": [
          22.803798,
          44.617524
        ]
      }
    },
    {
      "type": "Feature",
      "properties": {
        "station_id": "10861",
        "name": "Brădeşti h."
      },
      "geometry": {
        "type": "Point",
        "coordinates": [
          23.617791,
          44.490656
        ]
      }
    },
    {
      "type": "Feature",
      "properties": {
        "station_id": "14922",
        "name": "Podari"
      },
      "geometry": {
        "type": "Point",
        "coordinates": [
          23.783944,
          44.243553
        ]
      }
    },
    {
      "type": "Feature",
      "properties": {
        "station_id": "16401",
        "name": "Bacova h."
      },
      "geometry": {
        "type": "Point",
        "coordinates": [
          21.55175,
          45.658838
        ]
      }
    },
    {
      "type": "Feature",
      "properties": {
        "station_id": "43507",
        "name": "Telciu Hm."
      },
      "geometry": {
        "type": "Point",
        "coordinates": [
          24.394932,
          47.421459
        ]
      }
    },
    {
      "type": "Feature",
      "properties": {
        "station_id": "11724",
        "name": "Jabăr Hm."
      },
      "geometry": {
        "type": "Point",
        "coordinates": [
          21.826653,
          45.726631
        ]
      }
    },
    {
      "type": "Feature",
      "properties": {
        "station_id": "11750",
        "name": "Chizătău Hm."
      },
      "geometry": {
        "type": "Point",
        "coordinates": [
          21.711526,
          45.750196
        ]
      }
    },
    {
      "type": "Feature",
      "properties": {
        "station_id": "15574",
        "name": "Valea Păltinişului h."
      },
      "geometry": {
        "type": "Point",
        "coordinates": [
          22.15352,
          45.449223
        ]
      }
    },
    {
      "type": "Feature",
      "properties": {
        "station_id": "10251",
        "name": "Angheleşti h."
      },
      "geometry": {
        "type": "Point",
        "coordinates": [
          25.646403,
          44.323022
        ]
      }
    },
    {
      "type": "Feature",
      "properties": {
        "station_id": "51152",
        "name": "Ram. Trifeşti"
      },
      "geometry": {
        "type": "Point",
        "coordinates": [
          26.898474,
          46.879369
        ]
      }
    },
    {
      "type": "Feature",
      "properties": {
        "station_id": "60725",
        "name": "Buhăieşti"
      },
      "geometry": {
        "type": "Point",
        "coordinates": [
          27.560066,
          46.797302
        ]
      }
    },
    {
      "type": "Feature",
      "properties": {
        "station_id": "61250",
        "name": "Cosmeşti Hm."
      },
      "geometry": {
        "type": "Point",
        "coordinates": [
          27.335539,
          45.859689
        ]
      }
    },
    {
      "type": "Feature",
      "properties": {
        "station_id": "30885",
        "name": "Feldioara Hm."
      },
      "geometry": {
        "type": "Point",
        "coordinates": [
          25.586369,
          45.825358
        ]
      }
    },
    {
      "type": "Feature",
      "properties": {
        "station_id": "35263",
        "name": "Chişineu Criş"
      },
      "geometry": {
        "type": "Point",
        "coordinates": [
          21.531311,
          46.52411
        ]
      }
    },
    {
      "type": "Feature",
      "properties": {
        "station_id": "20787",
        "name": "Orlat"
      },
      "geometry": {
        "type": "Point",
        "coordinates": [
          23.972039,
          45.761396
        ]
      }
    },
    {
      "type": "Feature",
      "properties": {
        "station_id": "10706",
        "name": "Pasaju Coşoveni hc."
      },
      "geometry": {
        "type": "Point",
        "coordinates": [
          23.930194,
          44.242628
        ]
      }
    },
    {
      "type": "Feature",
      "properties": {
        "station_id": "16463",
        "name": "Liebling hcv"
      },
      "geometry": {
        "type": "Point",
        "coordinates": [
          21.309128,
          45.580174
        ]
      }
    },
    {
      "type": "Feature",
      "properties": {
        "station_id": "13033",
        "name": "Toporaş h."
      },